[{"subject": "http://dati.beniculturali.it/mibact/luoghi/resource/culturalinstituteorsite/101930", "nome_istituzionale": "museo civico \"a. crespellani\"", "isilidentifier": "", "latitudine": "44.503353", "longitudine": "11.083701", "indirizzo": "via contessa matilde, 10,  - bazzano", "codice_postale": "40053", "comune": "bazzano", "provincia": "bologna", "regione": "emilia-romagna"}, {"subject": "http://dati.beniculturali.it/mibact/luoghi/resource/culturalinstituteorsite/101931", "nome_istituzionale": "museo della civilt\u00e0\u00a0 contadina istituzione \"villa smeraldi\"", "isilidentifier": "", "latitudine": "44.60065", "longitudine": "11.41666", "indirizzo": "via sammarina, 35 - loc. san marino di bentivoglio,  - bentivoglio", "codice_postale": "40010", "comune": "bentivoglio", "provincia": "bologna", "regione": "emilia-romagna"}, {"subject": "http://dati.beniculturali.it/mibact/luoghi/resource/culturalinstituteorsite/101932", "nome_istituzionale": "collezione d'arte antica, moderna e contemporanea unicredit", "isilidentifier": "", "latitudine": "44.495495", "longitudine": "11.348702", "indirizzo": "via zamboni, 20,  - bologna", "codice_postale": "40121", "comune": "bologna", "provincia": "bologna", "regione": "emilia-romagna"}, {"subject": "http://dati.beniculturali.it/mibact/luoghi/resource/culturalinstituteorsite/101933", "nome_istituzionale": "donazione \"putti\" - istituto ortopedico rizzoli", "isilidentifier": "", "latitudine": "44.480713", "longitudine": "11.342686", "indirizzo": "via g.c. pupilli, 1,  - bologna", "codice_postale": "40121", "comune": "bologna", "provincia": "bologna", "regione": "emilia-romagna"}, {"subject": "http://dati.beniculturali.it/mibact/luoghi/resource/culturalinstituteorsite/101934", "nome_istituzionale": "erbario e museo botanico", "isilidentifier": "", "latitudine": "44.49936", "longitudine": "11.352935", "indirizzo": "via irnerio, 42,  - bologna", "codice_postale": "40121", "comune": "bologna", "provincia": "bologna", "regione": "emilia-romagna"}, {"subject": "http://dati.beniculturali.it/mibact/luoghi/resource/culturalinstituteorsite/101935", "nome_istituzionale": "mambo - museo d'arte moderna di bologna", "isilidentifier": "", "latitudine": "44.50276", "longitudine": "11.337026", "indirizzo": "via don minzoni, 14,  - bologna", "codice_postale": "40121", "comune": "bologna", "provincia": "bologna", "regione": "emilia-romagna"}, {"subject": "http://dati.beniculturali.it/mibact/luoghi/resource/culturalinstituteorsite/101936", "nome_istituzionale": "musei civici d'arte antica - collezioni comunali d'arte di bologna", "isilidentifier": "", "latitudine": "44.49383", "longitudine": "11.342402", "indirizzo": "piazza maggiore, 6,  - bologna", "codice_postale": "40121", "comune": "bologna", "provincia": "bologna", "regione": "emilia-romagna"}, {"subject": "http://dati.beniculturali.it/mibact/luoghi/resource/culturalinstituteorsite/101937", "nome_istituzionale": "musei civici d'arte antica -  museo civico medievale di bologna", "isilidentifier": "", "latitudine": "44.49648", "longitudine": "11.342296", "indirizzo": "via manzoni, 4,  - bologna", "codice_postale": "40121", "comune": "bologna", "provincia": "bologna", "regione": "emilia-romagna"}, {"subject": "http://dati.beniculturali.it/mibact/luoghi/resource/culturalinstituteorsite/101939", "nome_istituzionale": "museo della comunicazione g. pelagalli - mille voci...mille suoni", "isilidentifier": "", "latitudine": "44.500854", "longitudine": "11.319823", "indirizzo": "via col di lana, 7/n,  - bologna", "codice_postale": "40121", "comune": "bologna", "provincia": "bologna", "regione": "emilia-romagna"}, {"subject": "http://dati.beniculturali.it/mibact/luoghi/resource/culturalinstituteorsite/101940", "nome_istituzionale": "casa carducci", "isilidentifier": "", "latitudine": "44.487843", "longitudine": "11.356923", "indirizzo": "piazza carducci, 5,  - bologna", "codice_postale": "40121", "comune": "bologna", "provincia": "bologna", "regione": "emilia-romagna"}, {"subject": "http://dati.beniculturali.it/mibact/luoghi/resource/culturalinstituteorsite/101941", "nome_istituzionale": "museo civico archeologico di bologna", "isilidentifier": "", "latitudine": "44.49295", "longitudine": "11.34357", "indirizzo": "via dell'archiginnasio, 2 - bologna", "codice_postale": "40124", "comune": "bologna", "provincia": "bologna", "regione": "emilia-romagna"}, {"subject": "http://dati.beniculturali.it/mibact/luoghi/resource/culturalinstituteorsite/101942", "nome_istituzionale": "museo memoriale della libert\u00e0\u00a0", "isilidentifier": "", "latitudine": "44.475945", "longitudine": "11.399217", "indirizzo": "via g. dozza, 24,  - bologna", "codice_postale": "40121", "comune": "bologna", "provincia": "bologna", "regione": "emilia-romagna"}, {"subject": "http://dati.beniculturali.it/mibact/luoghi/resource/culturalinstituteorsite/101943", "nome_istituzionale": "museo della strumentazione storica del liceo galvani", "isilidentifier": "", "latitudine": "44.4891", "longitudine": "11.347377", "indirizzo": "via castiglione, 38,  - bologna", "codice_postale": "40121", "comune": "bologna", "provincia": "bologna", "regione": "emilia-romagna"}, {"subject": "http://dati.beniculturali.it/mibact/luoghi/resource/culturalinstituteorsite/101944", "nome_istituzionale": "museo delle cere anatomiche \"l. cattaneo\"", "isilidentifier": "", "latitudine": "44.49855", "longitudine": "11.355008", "indirizzo": "via irnerio, 48,  - bologna", "codice_postale": "40121", "comune": "bologna", "provincia": "bologna", "regione": "emilia-romagna"}, {"subject": "http://dati.beniculturali.it/mibact/luoghi/resource/culturalinstituteorsite/101945", "nome_istituzionale": "museo geologico \"g. capellini\"", "isilidentifier": "", "latitudine": "44.497967", "longitudine": "11.35523", "indirizzo": "via zamboni, 63,  - bologna", "codice_postale": "40121", "comune": "bologna", "provincia": "bologna", "regione": "emilia-romagna"}, {"subject": "http://dati.beniculturali.it/mibact/luoghi/resource/culturalinstituteorsite/101946", "nome_istituzionale": "museo di san domenico di bologna", "isilidentifier": "", "latitudine": "44.489765", "longitudine": "11.343967", "indirizzo": "piazza s. domenico, 13 - bologna", "codice_postale": "40124", "comune": "bologna", "provincia": "bologna", "regione": "emilia-romagna"}, {"subject": "http://dati.beniculturali.it/mibact/luoghi/resource/culturalinstituteorsite/101947", "nome_istituzionale": "museo di san giuseppe di bologna", "isilidentifier": "", "latitudine": "44.489555", "longitudine": "11.325803", "indirizzo": "via bellinzona, 6,  - bologna", "codice_postale": "40121", "comune": "bologna", "provincia": "bologna", "regione": "emilia-romagna"}, {"subject": "http://dati.beniculturali.it/mibact/luoghi/resource/culturalinstituteorsite/101948", "nome_istituzionale": "museo ebraico di bologna", "isilidentifier": "", "latitudine": "44.495697", "longitudine": "11.347597", "indirizzo": "via valdonica, 1/5,  - bologna", "codice_postale": "40121", "comune": "bologna", "provincia": "bologna", "regione": "emilia-romagna"}, {"subject": "http://dati.beniculturali.it/mibact/luoghi/resource/culturalinstituteorsite/101949", "nome_istituzionale": "museo speleologico \"l. fantini\"", "isilidentifier": "", "latitudine": "44.502625", "longitudine": "11.333163", "indirizzo": "piazza vii novembre 1944, 7,  - bologna", "codice_postale": "40121", "comune": "bologna", "provincia": "bologna", "regione": "emilia-romagna"}, {"subject": "http://dati.beniculturali.it/mibact/luoghi/resource/culturalinstituteorsite/101950", "nome_istituzionale": "museo del tessuto e della tappezzeria \"vittorio zironi\"", "isilidentifier": "", "latitudine": "44.48832", "longitudine": "11.315866", "indirizzo": "via casaglia, 3,  - bologna", "codice_postale": "40121", "comune": "bologna", "provincia": "bologna", "regione": "emilia-romagna"}, {"subject": "http://dati.beniculturali.it/mibact/luoghi/resource/culturalinstituteorsite/101951", "nome_istituzionale": "museo tattile di pittura antica e moderna anteros", "isilidentifier": "", "latitudine": "44.48617", "longitudine": "11.348295", "indirizzo": "via castiglione, 71,  - bologna", "codice_postale": "40121", "comune": "bologna", "provincia": "bologna", "regione": "emilia-romagna"}, {"subject": "http://dati.beniculturali.it/mibact/luoghi/resource/culturalinstituteorsite/101952", "nome_istituzionale": "museo di zoologia di bologna", "isilidentifier": "", "latitudine": "44.49565", "longitudine": "11.35388", "indirizzo": "via selmi, 3,  - bologna", "codice_postale": "40121", "comune": "bologna", "provincia": "bologna", "regione": "emilia-romagna"}, {"subject": "http://dati.beniculturali.it/mibact/luoghi/resource/culturalinstituteorsite/101953", "nome_istituzionale": "galleria d'arte moderna raccolta lercaro", "isilidentifier": "", "latitudine": "44.498844", "longitudine": "11.337674", "indirizzo": "via riva reno, 57,  - bologna", "codice_postale": "40121", "comune": "bologna", "provincia": "bologna", "regione": "emilia-romagna"}, {"subject": "http://dati.beniculturali.it/mibact/luoghi/resource/culturalinstituteorsite/101954", "nome_istituzionale": "museo di san pietro: tesoro della cattedrale", "isilidentifier": "", "latitudine": "44.495255", "longitudine": "11.34442", "indirizzo": "via altabella, 6,  - bologna", "codice_postale": "40121", "comune": "bologna", "provincia": "bologna", "regione": "emilia-romagna"}, {"subject": "http://dati.beniculturali.it/mibact/luoghi/resource/culturalinstituteorsite/101955", "nome_istituzionale": "museo di san giovanni in monte", "isilidentifier": "", "latitudine": "44.491184", "longitudine": "11.34844", "indirizzo": "piazza san giovanni in monte, 1/2,  - bologna", "codice_postale": "40121", "comune": "bologna", "provincia": "bologna", "regione": "emilia-romagna"}, {"subject": "http://dati.beniculturali.it/mibact/luoghi/resource/culturalinstituteorsite/101956", "nome_istituzionale": "musei civici d'arte antica -  museo d'arte industriale \"davia bargellini\"", "isilidentifier": "", "latitudine": "44.492157", "longitudine": "11.351874", "indirizzo": "strada maggiore, 44,  - bologna", "codice_postale": "40121", "comune": "bologna", "provincia": "bologna", "regione": "emilia-romagna"}, {"subject": "http://dati.beniculturali.it/mibact/luoghi/resource/culturalinstituteorsite/101958", "nome_istituzionale": "collezione storica atc bologna", "isilidentifier": "", "latitudine": "44.50783", "longitudine": "11.35061", "indirizzo": "via bigari, 1/a,  - bologna", "codice_postale": "40121", "comune": "bologna", "provincia": "bologna", "regione": "emilia-romagna"}, {"subject": "http://dati.beniculturali.it/mibact/luoghi/resource/culturalinstituteorsite/101959", "nome_istituzionale": "museo della santa", "isilidentifier": "", "latitudine": "44.48891", "longitudine": "11.339767", "indirizzo": "via tagliapietre, 21,  - bologna", "codice_postale": "40121", "comune": "bologna", "provincia": "bologna", "regione": "emilia-romagna"}, {"subject": "http://dati.beniculturali.it/mibact/luoghi/resource/culturalinstituteorsite/101960", "nome_istituzionale": "museo della beata vergine di san luca", "isilidentifier": "", "latitudine": "44.490692", "longitudine": "11.329997", "indirizzo": "piazza di porta saragozza, 2/a,  - bologna", "codice_postale": "40121", "comune": "bologna", "provincia": "bologna", "regione": "emilia-romagna"}, {"subject": "http://dati.beniculturali.it/mibact/luoghi/resource/culturalinstituteorsite/101961", "nome_istituzionale": "museo di fisica di bologna", "isilidentifier": "", "latitudine": "44.498833", "longitudine": "11.353877", "indirizzo": "via irnerio, 46,  - bologna", "codice_postale": "40121", "comune": "bologna", "provincia": "bologna", "regione": "emilia-romagna"}, {"subject": "http://dati.beniculturali.it/mibact/luoghi/resource/culturalinstituteorsite/101962", "nome_istituzionale": "museo di santo stefano", "isilidentifier": "", "latitudine": "44.492104", "longitudine": "11.34848", "indirizzo": "via s. stefano, 24,  - bologna", "codice_postale": "40121", "comune": "bologna", "provincia": "bologna", "regione": "emilia-romagna"}, {"subject": "http://dati.beniculturali.it/mibact/luoghi/resource/culturalinstituteorsite/101963", "nome_istituzionale": "museo internazionale e biblioteca della musica", "isilidentifier": "", "latitudine": "44.49279", "longitudine": "11.350174", "indirizzo": "strada maggiore, 34,  - bologna", "codice_postale": "40121", "comune": "bologna", "provincia": "bologna", "regione": "emilia-romagna"}, {"subject": "http://dati.beniculturali.it/mibact/luoghi/resource/culturalinstituteorsite/101965", "nome_istituzionale": "museo del patrimonio industriale", "isilidentifier": "", "latitudine": "44.521988", "longitudine": "11.331256", "indirizzo": "via della beverara, 123,  - bologna", "codice_postale": "40121", "comune": "bologna", "provincia": "bologna", "regione": "emilia-romagna"}, {"subject": "http://dati.beniculturali.it/mibact/luoghi/resource/culturalinstituteorsite/101966", "nome_istituzionale": "museo di san petronio", "isilidentifier": "", "latitudine": "44.494022", "longitudine": "11.342454", "indirizzo": "piazza maggiore,  - bologna", "codice_postale": "40121", "comune": "bologna", "provincia": "bologna", "regione": "emilia-romagna"}, {"subject": "http://dati.beniculturali.it/mibact/luoghi/resource/culturalinstituteorsite/101967", "nome_istituzionale": "museo missionario d'arte cinese e museo dell'osservanza", "isilidentifier": "", "latitudine": "44.481144", "longitudine": "11.326846", "indirizzo": "via dell'osservanza, 88,  - bologna", "codice_postale": "40121", "comune": "bologna", "provincia": "bologna", "regione": "emilia-romagna"}, {"subject": "http://dati.beniculturali.it/mibact/luoghi/resource/culturalinstituteorsite/101968", "nome_istituzionale": "museo civico del risorgimento", "isilidentifier": "", "latitudine": "44.487843", "longitudine": "11.357074", "indirizzo": "piazza g. carducci, 5,  - bologna", "codice_postale": "40121", "comune": "bologna", "provincia": "bologna", "regione": "emilia-romagna"}, {"subject": "http://dati.beniculturali.it/mibact/luoghi/resource/culturalinstituteorsite/101969", "nome_istituzionale": "museo dell'assistenza infermieristica", "isilidentifier": "", "latitudine": "44.477337", "longitudine": "11.342398", "indirizzo": "via di barbiano, 1/10,  - bologna", "codice_postale": "40121", "comune": "bologna", "provincia": "bologna", "regione": "emilia-romagna"}, {"subject": "http://dati.beniculturali.it/mibact/luoghi/resource/culturalinstituteorsite/101970", "nome_istituzionale": "museo della sanit\u00e0\u00a0 e dell'assistenza", "isilidentifier": "", "latitudine": "44.493305", "longitudine": "11.344364", "indirizzo": "via clavature, 8,  - bologna", "codice_postale": "40121", "comune": "bologna", "provincia": "bologna", "regione": "emilia-romagna"}, {"subject": "http://dati.beniculturali.it/mibact/luoghi/resource/culturalinstituteorsite/101971", "nome_istituzionale": "museo della resistenza di bologna", "isilidentifier": "", "latitudine": "44.49365", "longitudine": "11.333932", "indirizzo": "via sant'isaia, 20,  - bologna", "codice_postale": "40121", "comune": "bologna", "provincia": "bologna", "regione": "emilia-romagna"}, {"subject": "http://dati.beniculturali.it/mibact/luoghi/resource/culturalinstituteorsite/101972", "nome_istituzionale": "museo di anatomia comparata \"e. giacomini\"", "isilidentifier": "", "latitudine": "44.49565", "longitudine": "11.35388", "indirizzo": "via selmi, 3,  - bologna", "codice_postale": "40121", "comune": "bologna", "provincia": "bologna", "regione": "emilia-romagna"}, {"subject": "http://dati.beniculturali.it/mibact/luoghi/resource/culturalinstituteorsite/101973", "nome_istituzionale": "museo di mineralogia \"l. bombicci\"", "isilidentifier": "", "latitudine": "44.498154", "longitudine": "11.355921", "indirizzo": "piazza di porta san donato, 1,  - bologna", "codice_postale": "40121", "comune": "bologna", "provincia": "bologna", "regione": "emilia-romagna"}, {"subject": "http://dati.beniculturali.it/mibact/luoghi/resource/culturalinstituteorsite/101974", "nome_istituzionale": "museo nazionale del soldatino \"m. massaccesi\"", "isilidentifier": "", "latitudine": "44.469303", "longitudine": "11.371052", "indirizzo": "via toscana, 19,  - bologna", "codice_postale": "40121", "comune": "bologna", "provincia": "bologna", "regione": "emilia-romagna"}, {"subject": "http://dati.beniculturali.it/mibact/luoghi/resource/culturalinstituteorsite/101975", "nome_istituzionale": "raccolta del dipartimento di chimica \"g. ciamician\"", "isilidentifier": "", "latitudine": "44.49616", "longitudine": "11.354165", "indirizzo": "via selmi, 2,  - bologna", "codice_postale": "40121", "comune": "bologna", "provincia": "bologna", "regione": "emilia-romagna"}, {"subject": "http://dati.beniculturali.it/mibact/luoghi/resource/culturalinstituteorsite/101979", "nome_istituzionale": "museo di antropologia", "isilidentifier": "", "latitudine": "44.49565", "longitudine": "11.35388", "indirizzo": "via selmi, 3,  - bologna", "codice_postale": "40121", "comune": "bologna", "provincia": "bologna", "regione": "emilia-romagna"}, {"subject": "http://dati.beniculturali.it/mibact/luoghi/resource/culturalinstituteorsite/101980", "nome_istituzionale": "museo civico archeologico e paleoambientale \"e. silvestri\"", "isilidentifier": "", "latitudine": "44.537987", "longitudine": "11.536822", "indirizzo": "via mentana, 32,  - budrio", "codice_postale": "40054", "comune": "budrio", "provincia": "bologna", "regione": "emilia-romagna"}, {"subject": "http://dati.beniculturali.it/mibact/luoghi/resource/culturalinstituteorsite/101981", "nome_istituzionale": "museo dell'ocarina e degli strumenti musicali in terracotta", "isilidentifier": "", "latitudine": "44.53766", "longitudine": "11.537003", "indirizzo": "via garibaldi, 35,  - budrio", "codice_postale": "40054", "comune": "budrio", "provincia": "bologna", "regione": "emilia-romagna"}, {"subject": "http://dati.beniculturali.it/mibact/luoghi/resource/culturalinstituteorsite/101982", "nome_istituzionale": "museo dei burattini", "isilidentifier": "", "latitudine": "44.5378", "longitudine": "11.536608", "indirizzo": "via garibaldi, 29,  - budrio", "codice_postale": "40054", "comune": "budrio", "provincia": "bologna", "regione": "emilia-romagna"}, {"subject": "http://dati.beniculturali.it/mibact/luoghi/resource/culturalinstituteorsite/101983", "nome_istituzionale": "pinacoteca civica domenico inzaghi", "isilidentifier": "", "latitudine": "44.537987", "longitudine": "11.536822", "indirizzo": "via mentana, 32,  - budrio", "codice_postale": "40054", "comune": "budrio", "provincia": "bologna", "regione": "emilia-romagna"}, {"subject": "http://dati.beniculturali.it/mibact/luoghi/resource/culturalinstituteorsite/101985", "nome_istituzionale": "museo del castagno di castel del rio", "isilidentifier": "", "latitudine": "44.21382", "longitudine": "11.504604", "indirizzo": "via montanara, 1 (c/o palazzo alidosi),  - castel del rio", "codice_postale": "40022", "comune": "castel del rio", "provincia": "bologna", "regione": "emilia-romagna"}, {"subject": "http://dati.beniculturali.it/mibact/luoghi/resource/culturalinstituteorsite/101986", "nome_istituzionale": "museo della guerra - linea gotica", "isilidentifier": "", "latitudine": "44.21382", "longitudine": "11.504604", "indirizzo": "via montanara, 1 (c/o palazzo alidosi),  - castel del rio", "codice_postale": "40022", "comune": "castel del rio", "provincia": "bologna", "regione": "emilia-romagna"}, {"subject": "http://dati.beniculturali.it/mibact/luoghi/resource/culturalinstituteorsite/101987", "nome_istituzionale": "ecomuseo della collina e del vino", "isilidentifier": "", "latitudine": "44.437508", "longitudine": "11.031739", "indirizzo": "via della rocca (c/o casa del capitano),  - castello di serravalle", "codice_postale": "40050", "comune": "castello di serravalle", "provincia": "bologna", "regione": "emilia-romagna"}, {"subject": "http://dati.beniculturali.it/mibact/luoghi/resource/culturalinstituteorsite/101988", "nome_istituzionale": "museo dei burattini \"l. preti\"", "isilidentifier": "", "latitudine": "44.72262", "longitudine": "11.149704", "indirizzo": "via della rocca, 2,  - crevalcore", "codice_postale": "40014", "comune": "crevalcore", "provincia": "bologna", "regione": "emilia-romagna"}, {"subject": "http://dati.beniculturali.it/mibact/luoghi/resource/culturalinstituteorsite/101989", "nome_istituzionale": "museo della pace \"g. mattioli\"", "isilidentifier": "", "latitudine": "44.72063", "longitudine": "11.150352", "indirizzo": "via xxv aprile, 85,  - crevalcore", "codice_postale": "40014", "comune": "crevalcore", "provincia": "bologna", "regione": "emilia-romagna"}, {"subject": "http://dati.beniculturali.it/mibact/luoghi/resource/culturalinstituteorsite/101990", "nome_istituzionale": "museo della rocca di dozza", "isilidentifier": "", "latitudine": "44.35896", "longitudine": "11.626813", "indirizzo": "piazza rocca, 6/a,  - dozza", "codice_postale": "40050", "comune": "dozza", "provincia": "bologna", "regione": "emilia-romagna"}, {"subject": "http://dati.beniculturali.it/mibact/luoghi/resource/culturalinstituteorsite/101991", "nome_istituzionale": "museo archivio mengoni", "isilidentifier": "", "latitudine": "44.26005", "longitudine": "11.559848", "indirizzo": "piazza roma, 22,  - fontanelice", "codice_postale": "40025", "comune": "fontanelice", "provincia": "bologna", "regione": "emilia-romagna"}, {"subject": "http://dati.beniculturali.it/mibact/luoghi/resource/culturalinstituteorsite/101992", "nome_istituzionale": "centro di documentazione giorgio morandi", "isilidentifier": "", "latitudine": "44.262856", "longitudine": "11.149323", "indirizzo": "loc. campiaro, 112,  - grizzana morandi", "codice_postale": "40030", "comune": "grizzana morandi", "provincia": "bologna", "regione": "emilia-romagna"}, {"subject": "http://dati.beniculturali.it/mibact/luoghi/resource/culturalinstituteorsite/101993", "nome_istituzionale": "museo della cooperativa ceramica \"g. bucci\"", "isilidentifier": "", "latitudine": "44.360695", "longitudine": "11.712854", "indirizzo": "via vittorio veneto, 13,  - imola", "codice_postale": "40026", "comune": "imola", "provincia": "bologna", "regione": "emilia-romagna"}, {"subject": "http://dati.beniculturali.it/mibact/luoghi/resource/culturalinstituteorsite/101994", "nome_istituzionale": "museo e pinacoteca diocesani", "isilidentifier": "", "latitudine": "44.35354", "longitudine": "11.711746", "indirizzo": "piazza duomo, 1,  - imola", "codice_postale": "40026", "comune": "imola", "provincia": "bologna", "regione": "emilia-romagna"}, {"subject": "http://dati.beniculturali.it/mibact/luoghi/resource/culturalinstituteorsite/101995", "nome_istituzionale": "museo mostra della resistenza e del novecento", "isilidentifier": "", "latitudine": "44.35194", "longitudine": "11.71856", "indirizzo": "via dei mille, 26,  - imola", "codice_postale": "40026", "comune": "imola", "provincia": "bologna", "regione": "emilia-romagna"}, {"subject": "http://dati.beniculturali.it/mibact/luoghi/resource/culturalinstituteorsite/101996", "nome_istituzionale": "museo di san domenico di imola", "isilidentifier": "", "latitudine": "44.355434", "longitudine": "11.712324", "indirizzo": "via sacchi, 4,  - imola", "codice_postale": "40026", "comune": "imola", "provincia": "bologna", "regione": "emilia-romagna"}, {"subject": "http://dati.beniculturali.it/mibact/luoghi/resource/culturalinstituteorsite/101997", "nome_istituzionale": "palazzo tozzoni", "isilidentifier": "", "latitudine": "44.353455", "longitudine": "11.710278", "indirizzo": "via garibaldi, 18,  - imola", "codice_postale": "40026", "comune": "imola", "provincia": "bologna", "regione": "emilia-romagna"}, {"subject": "http://dati.beniculturali.it/mibact/luoghi/resource/culturalinstituteorsite/101998", "nome_istituzionale": "rocca sforzesca - collezioni d'armi e di ceramiche", "isilidentifier": "", "latitudine": "44.353706", "longitudine": "11.708029", "indirizzo": "piazzale giovanni dalle bande nere,  - imola", "codice_postale": "40026", "comune": "imola", "provincia": "bologna", "regione": "emilia-romagna"}, {"subject": "http://dati.beniculturali.it/mibact/luoghi/resource/culturalinstituteorsite/102001", "nome_istituzionale": "museo etnografico \"g. carpani\"", "isilidentifier": "", "latitudine": "44.167458", "longitudine": "10.831307", "indirizzo": "loc. poggiolforato,  - lizzano in belvedere", "codice_postale": "40042", "comune": "lizzano in belvedere", "provincia": "bologna", "regione": "emilia-romagna"}, {"subject": "http://dati.beniculturali.it/mibact/luoghi/resource/culturalinstituteorsite/102003", "nome_istituzionale": "museo civico di buda (medicina)", "isilidentifier": "", "latitudine": "44.47639", "longitudine": "11.639474", "indirizzo": "via pillio, 1 (c/o palazzo della comunit\u00e0\u00a0),  - medicina", "codice_postale": "40059", "comune": "medicina", "provincia": "bologna", "regione": "emilia-romagna"}, {"subject": "http://dati.beniculturali.it/mibact/luoghi/resource/culturalinstituteorsite/102004", "nome_istituzionale": "museo della civilt\u00e0\u00a0 contadina dell'appennino", "isilidentifier": "", "latitudine": "44.20339", "longitudine": "11.315073", "indirizzo": "via provinciale, 13 - monghidoro", "codice_postale": "40063", "comune": "monghidoro", "provincia": "bologna", "regione": "emilia-romagna"}, {"subject": "http://dati.beniculturali.it/mibact/luoghi/resource/culturalinstituteorsite/102005", "nome_istituzionale": "museo civico archeologico \"luigi fantini\"", "isilidentifier": "", "latitudine": "44.32476", "longitudine": "11.404528", "indirizzo": "via del museo, 2,  - monterenzio", "codice_postale": "40050", "comune": "monterenzio", "provincia": "bologna", "regione": "emilia-romagna"}, {"subject": "http://dati.beniculturali.it/mibact/luoghi/resource/culturalinstituteorsite/102006", "nome_istituzionale": "museo dell'istituto nazionale fauna selvatica", "isilidentifier": "", "latitudine": "44.443584", "longitudine": "11.470525", "indirizzo": "via c\u00e0\u00a0 fornacetta, 9,  - ozzano dell'emilia", "codice_postale": "40064", "comune": "ozzano dell'emilia", "provincia": "bologna", "regione": "emilia-romagna"}, {"subject": "http://dati.beniculturali.it/mibact/luoghi/resource/culturalinstituteorsite/102007", "nome_istituzionale": "museo di anatomia patologica e teratologia veterinaria \"g.b. ercolani\"", "isilidentifier": "", "latitudine": "44.418888", "longitudine": "11.475358", "indirizzo": "via tolara di sopra, 50,  - ozzano dell'emilia", "codice_postale": "40064", "comune": "ozzano dell'emilia", "provincia": "bologna", "regione": "emilia-romagna"}, {"subject": "http://dati.beniculturali.it/mibact/luoghi/resource/culturalinstituteorsite/102008", "nome_istituzionale": "raccolta di antichi strumenti chirurgici veterinari", "isilidentifier": "", "latitudine": "44.433067", "longitudine": "11.485485", "indirizzo": "via tolara di sopra, 50 - ozzano dell'emilia", "codice_postale": "46064", "comune": "ozzano dell'emilia", "provincia": "bologna", "regione": "emilia-romagna"}, {"subject": "http://dati.beniculturali.it/mibact/luoghi/resource/culturalinstituteorsite/102009", "nome_istituzionale": "museo magi900 ", "isilidentifier": "", "latitudine": "44.710625", "longitudine": "11.302642", "indirizzo": "via rusticana, 1/a - pieve di cento", "codice_postale": "40066", "comune": "pieve di cento", "provincia": "bologna", "regione": "emilia-romagna"}, {"subject": "http://dati.beniculturali.it/mibact/luoghi/resource/culturalinstituteorsite/102010", "nome_istituzionale": "museo civico di pieve di cento", "isilidentifier": "", "latitudine": "44.712036", "longitudine": "11.305486", "indirizzo": "via della rocca, 1,  - pieve di cento", "codice_postale": "40066", "comune": "pieve di cento", "provincia": "bologna", "regione": "emilia-romagna"}, {"subject": "http://dati.beniculturali.it/mibact/luoghi/resource/culturalinstituteorsite/102011", "nome_istituzionale": "pinacoteca civica di pieve di cento", "isilidentifier": "", "latitudine": "44.7137", "longitudine": "11.30683", "indirizzo": "piazza a. costa, 10,  - pieve di cento", "codice_postale": "40066", "comune": "pieve di cento", "provincia": "bologna", "regione": "emilia-romagna"}, {"subject": "http://dati.beniculturali.it/mibact/luoghi/resource/culturalinstituteorsite/102012", "nome_istituzionale": "museo etnografico \"laborantes\"", "isilidentifier": "", "latitudine": "44.151142", "longitudine": "10.926805", "indirizzo": "via manservisi, 5 - loc. castelluccio,  - porretta terme", "codice_postale": "40046", "comune": "porretta terme", "provincia": "bologna", "regione": "emilia-romagna"}, {"subject": "http://dati.beniculturali.it/mibact/luoghi/resource/culturalinstituteorsite/102013", "nome_istituzionale": "museo delle moto e dei ciclomotori demm", "isilidentifier": "", "latitudine": "44.161064", "longitudine": "10.972763", "indirizzo": "via mazzini, 230/a,  - porretta terme", "codice_postale": "40046", "comune": "porretta terme", "provincia": "bologna", "regione": "emilia-romagna"}, {"subject": "http://dati.beniculturali.it/mibact/luoghi/resource/culturalinstituteorsite/102014", "nome_istituzionale": "museo archeologico ambientale", "isilidentifier": "", "latitudine": "44.64036", "longitudine": "11.188891", "indirizzo": "corso italia, 163,  - san giovanni in persiceto", "codice_postale": "40017", "comune": "san giovanni in persiceto", "provincia": "bologna", "regione": "emilia-romagna"}, {"subject": "http://dati.beniculturali.it/mibact/luoghi/resource/culturalinstituteorsite/102015", "nome_istituzionale": "museo del cielo e della terra", "isilidentifier": "", "latitudine": "44.635834", "longitudine": "11.181732", "indirizzo": "vicolo baciadonne, 1,  - san giovanni in persiceto", "codice_postale": "40017", "comune": "san giovanni in persiceto", "provincia": "bologna", "regione": "emilia-romagna"}, {"subject": "http://dati.beniculturali.it/mibact/luoghi/resource/culturalinstituteorsite/102016", "nome_istituzionale": "museo d'arte sacra di san giovanni in persiceto", "isilidentifier": "", "latitudine": "44.63841", "longitudine": "11.187426", "indirizzo": "piazza del popolo, 22,  - san giovanni in persiceto", "codice_postale": "40017", "comune": "san giovanni in persiceto", "provincia": "bologna", "regione": "emilia-romagna"}, {"subject": "http://dati.beniculturali.it/mibact/luoghi/resource/culturalinstituteorsite/102018", "nome_istituzionale": "museo della preistoria \"luigi donini\"", "isilidentifier": "", "latitudine": "44.46986", "longitudine": "11.399712", "indirizzo": "via f.lli canova, 49,  - san lazzaro di savena", "codice_postale": "40068", "comune": "san lazzaro di savena", "provincia": "bologna", "regione": "emilia-romagna"}, {"subject": "http://dati.beniculturali.it/mibact/luoghi/resource/culturalinstituteorsite/102019", "nome_istituzionale": "casa frabboni", "isilidentifier": "", "latitudine": "44.70121", "longitudine": "11.404261", "indirizzo": "via matteotti, 137,  - san pietro in casale", "codice_postale": "40018", "comune": "san pietro in casale", "provincia": "bologna", "regione": "emilia-romagna"}, {"subject": "http://dati.beniculturali.it/mibact/luoghi/resource/culturalinstituteorsite/102020", "nome_istituzionale": "museo lamborghini", "isilidentifier": "", "latitudine": "44.65932", "longitudine": "11.126919", "indirizzo": "via modena, 12,  - sant'agata bolognese", "codice_postale": "40019", "comune": "sant'agata bolognese", "provincia": "bologna", "regione": "emilia-romagna"}, {"subject": "http://dati.beniculturali.it/mibact/luoghi/resource/culturalinstituteorsite/103915", "nome_istituzionale": "museo di anatomia degli animali domestici", "isilidentifier": "", "latitudine": "44.418888", "longitudine": "11.475358", "indirizzo": "via tolara di sopra, 50,  - ozzano dell'emilia", "codice_postale": "40064", "comune": "ozzano dell'emilia", "provincia": "bologna", "regione": "emilia-romagna"}, {"subject": "http://dati.beniculturali.it/mibact/luoghi/resource/culturalinstituteorsite/104569", "nome_istituzionale": "museo di palazzo poggi", "isilidentifier": "", "latitudine": "44.496937", "longitudine": "11.352382", "indirizzo": "via zamboni, 33,  - bologna", "codice_postale": "40121", "comune": "bologna", "provincia": "bologna", "regione": "emilia-romagna"}, {"subject": "http://dati.beniculturali.it/mibact/luoghi/resource/culturalinstituteorsite/104570", "nome_istituzionale": "torrione della canapa", "isilidentifier": "", "latitudine": "44.538963", "longitudine": "11.535025", "indirizzo": "via donati,  - budrio", "codice_postale": "40054", "comune": "budrio", "provincia": "bologna", "regione": "emilia-romagna"}, {"subject": "http://dati.beniculturali.it/mibact/luoghi/resource/culturalinstituteorsite/104572", "nome_istituzionale": "torrione del risorgimento", "isilidentifier": "", "latitudine": "44.538147", "longitudine": "11.534703", "indirizzo": ",  - budrio", "codice_postale": "40054", "comune": "budrio", "provincia": "bologna", "regione": "emilia-romagna"}, {"subject": "http://dati.beniculturali.it/mibact/luoghi/resource/culturalinstituteorsite/104904", "nome_istituzionale": "museo di arti e mestieri \"p. lazzarini\"", "isilidentifier": "", "latitudine": "44.38731", "longitudine": "11.34331", "indirizzo": "via del gualando, 2,  - pianoro", "codice_postale": "40065", "comune": "pianoro", "provincia": "bologna", "regione": "emilia-romagna"}, {"subject": "http://dati.beniculturali.it/mibact/luoghi/resource/culturalinstituteorsite/104905", "nome_istituzionale": "ecomuseo dell\u00c3\u00a2\u00e2\u201a\u00ac\u00e2\u201e\u00a2acqua", "isilidentifier": "", "latitudine": "44.63858", "longitudine": "11.261538", "indirizzo": "via zaccarelli, 16 - loc. padulle,  - sala bolognese", "codice_postale": "40010", "comune": "sala bolognese", "provincia": "bologna", "regione": "emilia-romagna"}, {"subject": "http://dati.beniculturali.it/mibact/luoghi/resource/culturalinstituteorsite/104948", "nome_istituzionale": "museo europeo degli studenti", "isilidentifier": "", "latitudine": "44.496937", "longitudine": "11.352382", "indirizzo": "via zamboni, 33,  - bologna", "codice_postale": "40121", "comune": "bologna", "provincia": "bologna", "regione": "emilia-romagna"}, {"subject": "http://dati.beniculturali.it/mibact/luoghi/resource/culturalinstituteorsite/105166", "nome_istituzionale": "c\u00e0\u00a0 la ghironda", "isilidentifier": "", "latitudine": "44.496075", "longitudine": "11.188589", "indirizzo": "via leonardo da vinci, 19 - loc. ponte ronca,  - zola predosa", "codice_postale": "40069", "comune": "zola predosa", "provincia": "bologna", "regione": "emilia-romagna"}, {"subject": "http://dati.beniculturali.it/mibact/luoghi/resource/culturalinstituteorsite/105208", "nome_istituzionale": "raccolte storiche dell\u00c3\u00a2\u00e2\u201a\u00ac\u00e2\u201e\u00a2accademia di belle arti", "isilidentifier": "", "latitudine": "44.497707", "longitudine": "11.353019", "indirizzo": "via delle belle arti, 54 - bologna", "codice_postale": "40121", "comune": "bologna", "provincia": "bologna", "regione": "emilia-romagna"}, {"subject": "http://dati.beniculturali.it/mibact/luoghi/resource/culturalinstituteorsite/105209", "nome_istituzionale": "mostra permanente - \"il museo della citt\u00e0\u00a0 romana di claterna\"", "isilidentifier": "", "latitudine": "44.44303", "longitudine": "11.476215", "indirizzo": "piazza allende, 18 (c/o biblioteca),  - ozzano dell'emilia", "codice_postale": "40064", "comune": "ozzano dell'emilia", "provincia": "bologna", "regione": "emilia-romagna"}, {"subject": "http://dati.beniculturali.it/mibact/luoghi/resource/culturalinstituteorsite/105330", "nome_istituzionale": "museo parrocchiale d\u00c3\u00a2\u00e2\u201a\u00ac\u00e2\u201e\u00a2arte sacra \"don g. polo\"", "isilidentifier": "", "latitudine": "44.35926", "longitudine": "11.628484", "indirizzo": "via xx settembre, 54,  - dozza", "codice_postale": "40050", "comune": "dozza", "provincia": "bologna", "regione": "emilia-romagna"}, {"subject": "http://dati.beniculturali.it/mibact/luoghi/resource/culturalinstituteorsite/105544", "nome_istituzionale": "raccolta del dipartimento di fisiologia umana e generale", "isilidentifier": "", "latitudine": "44.498478", "longitudine": "11.356325", "indirizzo": "piazza di porta san donato, 2,  - bologna", "codice_postale": "40121", "comune": "bologna", "provincia": "bologna", "regione": "emilia-romagna"}, {"subject": "http://dati.beniculturali.it/mibact/luoghi/resource/culturalinstituteorsite/105545", "nome_istituzionale": "museo del risorgimento di imola", "isilidentifier": "", "latitudine": "44.353653", "longitudine": "11.713673", "indirizzo": "via emilia, 80,  - imola", "codice_postale": "40026", "comune": "imola", "provincia": "bologna", "regione": "emilia-romagna"}, {"subject": "http://dati.beniculturali.it/mibact/luoghi/resource/culturalinstituteorsite/105663", "nome_istituzionale": "museo della civilt\u00e0\u00a0 contadina e della canapa \"g. romagnoli\"", "isilidentifier": "", "latitudine": "44.60753", "longitudine": "11.374966", "indirizzo": "vicolo santa lucia, 2 - bentivoglio", "codice_postale": "40010", "comune": "bentivoglio", "provincia": "bologna", "regione": "emilia-romagna"}, {"subject": "http://dati.beniculturali.it/mibact/luoghi/resource/culturalinstituteorsite/105680", "nome_istituzionale": "museo parrocchiale di monghidoro", "isilidentifier": "", "latitudine": "44.218906", "longitudine": "11.31669", "indirizzo": "via garibaldi, 37,  - monghidoro", "codice_postale": "40063", "comune": "monghidoro", "provincia": "bologna", "regione": "emilia-romagna"}, {"subject": "http://dati.beniculturali.it/mibact/luoghi/resource/culturalinstituteorsite/106190", "nome_istituzionale": "museo dell\u00c3\u00a2\u00e2\u201a\u00ac\u00e2\u201e\u00a2accademia filarmonica", "isilidentifier": "", "latitudine": "44.49109", "longitudine": "11.351134", "indirizzo": "via guerrazzi, 13,  - bologna", "codice_postale": "40121", "comune": "bologna", "provincia": "bologna", "regione": "emilia-romagna"}, {"subject": "http://dati.beniculturali.it/mibact/luoghi/resource/culturalinstituteorsite/106191", "nome_istituzionale": "museo ducati", "isilidentifier": "", "latitudine": "44.5185", "longitudine": "11.270764", "indirizzo": "via c. ducati, 3 - loc. borgo panigale,  - bologna", "codice_postale": "40121", "comune": "bologna", "provincia": "bologna", "regione": "emilia-romagna"}, {"subject": "http://dati.beniculturali.it/mibact/luoghi/resource/culturalinstituteorsite/106192", "nome_istituzionale": "centro visite \"i gessi e il fiume\"", "isilidentifier": "", "latitudine": "44.27249", "longitudine": "11.603539", "indirizzo": "piazza a. costa,  - borgo tossignano", "codice_postale": "40021", "comune": "borgo tossignano", "provincia": "bologna", "regione": "emilia-romagna"}, {"subject": "http://dati.beniculturali.it/mibact/luoghi/resource/culturalinstituteorsite/106193", "nome_istituzionale": "museo della cultura materiale", "isilidentifier": "", "latitudine": "44.27249", "longitudine": "11.603539", "indirizzo": "piazza a. costa,  - borgo tossignano", "codice_postale": "40021", "comune": "borgo tossignano", "provincia": "bologna", "regione": "emilia-romagna"}, {"subject": "http://dati.beniculturali.it/mibact/luoghi/resource/culturalinstituteorsite/107793", "nome_istituzionale": "palazzo pepoli campogrande", "isilidentifier": "", "latitudine": "44.49228", "longitudine": "11.34652", "indirizzo": "via castiglione, 7 - bologna", "codice_postale": "40124", "comune": "bologna", "provincia": "bologna", "regione": "emilia-romagna"}, {"subject": "http://dati.beniculturali.it/mibact/luoghi/resource/culturalinstituteorsite/107806", "nome_istituzionale": "teatro comunale di crevalcore", "isilidentifier": "", "latitudine": "44.722378", "longitudine": "11.147933", "indirizzo": "via g. matteotti, 118,  - crevalcore", "codice_postale": "40014", "comune": "crevalcore", "provincia": "bologna", "regione": "emilia-romagna"}, {"subject": "http://dati.beniculturali.it/mibact/luoghi/resource/culturalinstituteorsite/107814", "nome_istituzionale": "teatrino di villa aldrovandi-mazzacurati", "isilidentifier": "", "latitudine": "44.469532", "longitudine": "11.369948", "indirizzo": "via toscana 19,  - bologna", "codice_postale": "40121", "comune": "bologna", "provincia": "bologna", "regione": "emilia-romagna"}, {"subject": "http://dati.beniculturali.it/mibact/luoghi/resource/culturalinstituteorsite/107817", "nome_istituzionale": "teatro alessandro guardassoni", "isilidentifier": "", "latitudine": "44.490612", "longitudine": "11.341496", "indirizzo": "via m. d'azeglio, 55,  - bologna", "codice_postale": "40121", "comune": "bologna", "provincia": "bologna", "regione": "emilia-romagna"}, {"subject": "http://dati.beniculturali.it/mibact/luoghi/resource/culturalinstituteorsite/107826", "nome_istituzionale": "teatrino di villa altieri", "isilidentifier": "", "latitudine": "44.548042", "longitudine": "11.365287", "indirizzo": "via peglion, 25,  - bologna", "codice_postale": "40121", "comune": "bologna", "provincia": "bologna", "regione": "emilia-romagna"}, {"subject": "http://dati.beniculturali.it/mibact/luoghi/resource/culturalinstituteorsite/107864", "nome_istituzionale": "museo apistico di bologna", "isilidentifier": "", "latitudine": "44.524937", "longitudine": "11.350022", "indirizzo": "via di saliceto, 80,  - bologna", "codice_postale": "40121", "comune": "bologna", "provincia": "bologna", "regione": "emilia-romagna"}, {"subject": "http://dati.beniculturali.it/mibact/luoghi/resource/culturalinstituteorsite/107876", "nome_istituzionale": "san giorgio in poggiale", "isilidentifier": "", "latitudine": "44.49748", "longitudine": "11.339492", "indirizzo": "via nazario sauro, 22,  - bologna", "codice_postale": "40121", "comune": "bologna", "provincia": "bologna", "regione": "emilia-romagna"}, {"subject": "http://dati.beniculturali.it/mibact/luoghi/resource/culturalinstituteorsite/107885", "nome_istituzionale": "teatro comunale alice zeppilli", "isilidentifier": "", "latitudine": "44.713703", "longitudine": "11.306788", "indirizzo": "piazza andrea costa, 17,  - pieve di cento", "codice_postale": "40066", "comune": "pieve di cento", "provincia": "bologna", "regione": "emilia-romagna"}, {"subject": "http://dati.beniculturali.it/mibact/luoghi/resource/culturalinstituteorsite/107886", "nome_istituzionale": "teatro comunale politeama", "isilidentifier": "", "latitudine": "44.63835", "longitudine": "11.186998", "indirizzo": "corso italia,  - san giovanni in persiceto", "codice_postale": "40017", "comune": "san giovanni in persiceto", "provincia": "bologna", "regione": "emilia-romagna"}, {"subject": "http://dati.beniculturali.it/mibact/luoghi/resource/culturalinstituteorsite/107916", "nome_istituzionale": "teatro alfredo testoni", "isilidentifier": "", "latitudine": "44.477875", "longitudine": "11.276348", "indirizzo": "piazza del popolo, 1,  - casalecchio di reno", "codice_postale": "40033", "comune": "casalecchio di reno", "provincia": "bologna", "regione": "emilia-romagna"}, {"subject": "http://dati.beniculturali.it/mibact/luoghi/resource/culturalinstituteorsite/107917", "nome_istituzionale": "teatro comunale ebe stignani", "isilidentifier": "", "latitudine": "44.353653", "longitudine": "11.713672", "indirizzo": "via emilia, 80,  - imola", "codice_postale": "40026", "comune": "imola", "provincia": "bologna", "regione": "emilia-romagna"}, {"subject": "http://dati.beniculturali.it/mibact/luoghi/resource/culturalinstituteorsite/107927", "nome_istituzionale": "cappella di santa maria dei carcerati in palazzo re enzo", "isilidentifier": "", "latitudine": "44.49436", "longitudine": "11.343682", "indirizzo": "voltone del podest\u00e0\u00a0 piazza maggiore,  - bologna", "codice_postale": "40121", "comune": "bologna", "provincia": "bologna", "regione": "emilia-romagna"}, {"subject": "http://dati.beniculturali.it/mibact/luoghi/resource/culturalinstituteorsite/107941", "nome_istituzionale": "teatro comunale di bologna", "isilidentifier": "", "latitudine": "44.496353", "longitudine": "11.350529", "indirizzo": "largo respighi, 1,  - bologna", "codice_postale": "40121", "comune": "bologna", "provincia": "bologna", "regione": "emilia-romagna"}, {"subject": "http://dati.beniculturali.it/mibact/luoghi/resource/culturalinstituteorsite/107943", "nome_istituzionale": "raccolta di strumenti di topografia e geodesia", "isilidentifier": "", "latitudine": "44.48824", "longitudine": "11.328288", "indirizzo": "viale risorgimento, 2,  - bologna", "codice_postale": "40121", "comune": "bologna", "provincia": "bologna", "regione": "emilia-romagna"}, {"subject": "http://dati.beniculturali.it/mibact/luoghi/resource/culturalinstituteorsite/107959", "nome_istituzionale": "teatrino del conservatorio del baraccano", "isilidentifier": "", "latitudine": "44.486076", "longitudine": "11.354281", "indirizzo": "via santo stefano, 119,  - bologna", "codice_postale": "40121", "comune": "bologna", "provincia": "bologna", "regione": "emilia-romagna"}, {"subject": "http://dati.beniculturali.it/mibact/luoghi/resource/culturalinstituteorsite/107961", "nome_istituzionale": "orto botanico di bologna", "isilidentifier": "", "latitudine": "44.499363", "longitudine": "11.352935", "indirizzo": "via irnerio, 42,  - bologna", "codice_postale": "40121", "comune": "bologna", "provincia": "bologna", "regione": "emilia-romagna"}, {"subject": "http://dati.beniculturali.it/mibact/luoghi/resource/culturalinstituteorsite/107964", "nome_istituzionale": "teatro comunale di castello d'argile", "isilidentifier": "", "latitudine": "44.644203", "longitudine": "11.374129", "indirizzo": "via matteotti,  - castello d'argile", "codice_postale": "40050", "comune": "castello d'argile", "provincia": "bologna", "regione": "emilia-romagna"}, {"subject": "http://dati.beniculturali.it/mibact/luoghi/resource/culturalinstituteorsite/107965", "nome_istituzionale": "teatro comunale di mordano", "isilidentifier": "", "latitudine": "44.398907", "longitudine": "11.812815", "indirizzo": "via s.eustachio, 22,  - mordano", "codice_postale": "40027", "comune": "mordano", "provincia": "bologna", "regione": "emilia-romagna"}, {"subject": "http://dati.beniculturali.it/mibact/luoghi/resource/culturalinstituteorsite/107966", "nome_istituzionale": "teatro comunale \"ferdinando bibiena\"", "isilidentifier": "", "latitudine": "44.66456", "longitudine": "11.134159", "indirizzo": "via 2 agosto 1980, 114,  - sant'agata bolognese", "codice_postale": "40019", "comune": "sant'agata bolognese", "provincia": "bologna", "regione": "emilia-romagna"}, {"subject": "http://dati.beniculturali.it/mibact/luoghi/resource/culturalinstituteorsite/107997", "nome_istituzionale": "arena del sole", "isilidentifier": "", "latitudine": "44.49934", "longitudine": "11.343881", "indirizzo": "via dell'indipendenza, 44,  - bologna", "codice_postale": "40121", "comune": "bologna", "provincia": "bologna", "regione": "emilia-romagna"}, {"subject": "http://dati.beniculturali.it/mibact/luoghi/resource/culturalinstituteorsite/107998", "nome_istituzionale": "biennale e pinacoteca del muro dipinto - comune di dozza (bo)", "isilidentifier": "", "latitudine": "44.359413", "longitudine": "11.629004", "indirizzo": "via xx settembre 37,  - dozza", "codice_postale": "40050", "comune": "dozza", "provincia": "bologna", "regione": "emilia-romagna"}, {"subject": "http://dati.beniculturali.it/mibact/luoghi/resource/culturalinstituteorsite/108009", "nome_istituzionale": "certosa monumentale", "isilidentifier": "", "latitudine": "44.496082", "longitudine": "11.311052", "indirizzo": "via della certosa, 18,  - bologna", "codice_postale": "40121", "comune": "bologna", "provincia": "bologna", "regione": "emilia-romagna"}, {"subject": "http://dati.beniculturali.it/mibact/luoghi/resource/culturalinstituteorsite/108016", "nome_istituzionale": "teatro consorziale", "isilidentifier": "", "latitudine": "44.537777", "longitudine": "11.53667", "indirizzo": "via g. garibaldi, 35,  - budrio", "codice_postale": "40054", "comune": "budrio", "provincia": "bologna", "regione": "emilia-romagna"}, {"subject": "http://dati.beniculturali.it/mibact/luoghi/resource/culturalinstituteorsite/108018", "nome_istituzionale": "teatro eleonora duse ex teatro brunetti", "isilidentifier": "", "latitudine": "44.488575", "longitudine": "11.3479", "indirizzo": "via cartolerie, 42,  - bologna", "codice_postale": "40121", "comune": "bologna", "provincia": "bologna", "regione": "emilia-romagna"}, {"subject": "http://dati.beniculturali.it/mibact/luoghi/resource/culturalinstituteorsite/111075", "nome_istituzionale": "museo giardino geologico \"sandra forni\"", "isilidentifier": "", "latitudine": "44.507694", "longitudine": "11.368098", "indirizzo": "viale della fiera - bologna", "codice_postale": "", "comune": "bologna", "provincia": "bologna", "regione": "emilia-romagna"}, {"subject": "http://dati.beniculturali.it/mibact/luoghi/resource/culturalinstituteorsite/111087", "nome_istituzionale": "palazzo fava - palazzo delle esposizioni", "isilidentifier": "", "latitudine": "44.49659", "longitudine": "11.341709", "indirizzo": "via manzoni , 2 - bologna", "codice_postale": "", "comune": "bologna", "provincia": "bologna", "regione": "emilia-romagna"}, {"subject": "http://dati.beniculturali.it/mibact/luoghi/resource/culturalinstituteorsite/111089", "nome_istituzionale": "la quadreria - palazzo rossi poggi marsili", "isilidentifier": "", "latitudine": "44.497494", "longitudine": "11.344237", "indirizzo": "via marsala, 7 - bologna", "codice_postale": "40126", "comune": "bologna", "provincia": "bologna", "regione": "emilia-romagna"}, {"subject": "http://dati.beniculturali.it/mibact/luoghi/resource/culturalinstituteorsite/111091", "nome_istituzionale": "san colombano - collezione tagliavini", "isilidentifier": "", "latitudine": "44.496548", "longitudine": "11.341009", "indirizzo": "via parigi , 5 - bologna", "codice_postale": "", "comune": "bologna", "provincia": "bologna", "regione": "emilia-romagna"}, {"subject": "http://dati.beniculturali.it/mibact/luoghi/resource/culturalinstituteorsite/111092", "nome_istituzionale": "san michele in bosco", "isilidentifier": "", "latitudine": "44.48191", "longitudine": "11.34132", "indirizzo": "piazzale di san michele in bosco - bologna", "codice_postale": "", "comune": "bologna", "provincia": "bologna", "regione": "emilia-romagna"}, {"subject": "http://dati.beniculturali.it/mibact/luoghi/resource/culturalinstituteorsite/111102", "nome_istituzionale": "chiesa di santa cristina della fondazza", "isilidentifier": "", "latitudine": "44.488865", "longitudine": "11.355198", "indirizzo": "piazzetta giorgio morandi, 2 - bologna", "codice_postale": "", "comune": "bologna", "provincia": "bologna", "regione": "emilia-romagna"}, {"subject": "http://dati.beniculturali.it/mibact/luoghi/resource/culturalinstituteorsite/111105", "nome_istituzionale": "muv - museo della civilt\u00e0\u00a0 villanoviana", "isilidentifier": "", "latitudine": "44.5059", "longitudine": "11.462009", "indirizzo": "via tosarelli , 191 - castenaso", "codice_postale": "", "comune": "castenaso", "provincia": "bologna", "regione": "emilia-romagna"}, {"subject": "http://dati.beniculturali.it/mibact/luoghi/resource/culturalinstituteorsite/111124", "nome_istituzionale": "collezione pier fernando mondini", "isilidentifier": "", "latitudine": "44.355648", "longitudine": "11.708859", "indirizzo": "via emilia, 32 - imola", "codice_postale": "", "comune": "imola", "provincia": "bologna", "regione": "emilia-romagna"}, {"subject": "http://dati.beniculturali.it/mibact/luoghi/resource/culturalinstituteorsite/111125", "nome_istituzionale": "museo d\u00c3\u00a2\u00e2\u201a\u00ac\u00e2\u201e\u00a2arte sacra del santuario del piratello", "isilidentifier": "", "latitudine": "44.505596", "longitudine": "11.30913", "indirizzo": "via emilia ponente, 27 - bologna", "codice_postale": "", "comune": "bologna", "provincia": "bologna", "regione": "emilia-romagna"}, {"subject": "http://dati.beniculturali.it/mibact/luoghi/resource/culturalinstituteorsite/111126", "nome_istituzionale": "raccolta d\u00c3\u00a2\u00e2\u201a\u00ac\u00e2\u201e\u00a2arte moderna \"raccolta lercaro\"", "isilidentifier": "", "latitudine": "44.498802", "longitudine": "11.337702", "indirizzo": "via riva di reno, 57 - bologna", "codice_postale": "", "comune": "bologna", "provincia": "bologna", "regione": "emilia-romagna"}, {"subject": "http://dati.beniculturali.it/mibact/luoghi/resource/culturalinstituteorsite/116646", "nome_istituzionale": "archivio di stato di bologna ", "isilidentifier": "", "latitudine": "44.49204", "longitudine": "11.341424", "indirizzo": "piazza celestini, 4 - bologna", "codice_postale": "40123", "comune": "bologna", "provincia": "bologna", "regione": "emilia-romagna"}, {"subject": "http://dati.beniculturali.it/mibact/luoghi/resource/culturalinstituteorsite/116648", "nome_istituzionale": "archivio di stato di bologna. sezione di imola", "isilidentifier": "", "latitudine": "44.35559", "longitudine": "11.711252", "indirizzo": "via giuseppe verdi, 6 - imola", "codice_postale": "40026", "comune": "imola", "provincia": "bologna", "regione": "emilia-romagna"}, {"subject": "http://dati.beniculturali.it/mibact/luoghi/resource/culturalinstituteorsite/117531", "nome_istituzionale": "ex chiesa di san barbaziano", "isilidentifier": "", "latitudine": "44.49231", "longitudine": "11.337923", "indirizzo": "via cesare battisti, 35 - bologna", "codice_postale": "40123", "comune": "bologna", "provincia": "bologna", "regione": "emilia-romagna"}, {"subject": "http://dati.beniculturali.it/mibact/luoghi/resource/culturalinstituteorsite/122696", "nome_istituzionale": "castello rocchetta mattei", "isilidentifier": "", "latitudine": "44.2197", "longitudine": "11.066177", "indirizzo": "s.p. 62 riola ponte - grizzana morandi", "codice_postale": "40030", "comune": "grizzana morandi", "provincia": "bologna", "regione": "emilia-romagna"}, {"subject": "http://dati.beniculturali.it/mibact/luoghi/resource/culturalinstituteorsite/123006", "nome_istituzionale": "torre jussi", "isilidentifier": "", "latitudine": "44.29395", "longitudine": "11.015591", "indirizzo": "", "codice_postale": "40034", "comune": "castel d'aiano", "provincia": "bologna", "regione": "emilia-romagna"}, {"subject": "http://dati.beniculturali.it/mibact/luoghi/resource/culturalinstituteorsite/126373", "nome_istituzionale": "biblioteca universitaria di bologna", "isilidentifier": "", "latitudine": "44.497025", "longitudine": "11.352819", "indirizzo": "via zamboni , 35 - bologna", "codice_postale": "40126", "comune": "bologna", "provincia": "bologna", "regione": "emilia-romagna"}, {"subject": "http://dati.beniculturali.it/mibact/luoghi/resource/culturalinstituteorsite/127902", "nome_istituzionale": "museo dei botroidi di luigi fantini", "isilidentifier": "", "latitudine": "44.333813", "longitudine": "11.383272", "indirizzo": "via tazzola, 10 - pianoro", "codice_postale": "", "comune": "pianoro", "provincia": "bologna", "regione": "emilia-romagna"}, {"subject": "http://dati.beniculturali.it/mibact/luoghi/resource/culturalinstituteorsite/20150", "nome_istituzionale": "pinacoteca nazionale di bologna", "isilidentifier": "", "latitudine": "44.497772", "longitudine": "11.353547", "indirizzo": "via delle belle arti, 56 - bologna", "codice_postale": "40126", "comune": "bologna", "provincia": "bologna", "regione": "emilia-romagna"}, {"subject": "http://dati.beniculturali.it/mibact/luoghi/resource/culturalinstituteorsite/20237", "nome_istituzionale": "museo nazionale etrusco \"pompeo aria\"", "isilidentifier": "", "latitudine": "44.336773", "longitudine": "11.202711", "indirizzo": "via porrettana sud, 13 - marzabotto", "codice_postale": "40043", "comune": "marzabotto", "provincia": "bologna", "regione": "emilia-romagna"}, {"subject": "http://dati.beniculturali.it/mibact/luoghi/resource/culturalinstituteorsite/20427", "nome_istituzionale": "ex chiesa di san mattia", "isilidentifier": "", "latitudine": "44.493526", "longitudine": "11.334351", "indirizzo": "via sant\u00c3\u00a2\u00e2\u201a\u00ac\u00e2\u201e\u00a2isaia, 14/a - bologna", "codice_postale": "40123", "comune": "bologna", "provincia": "bologna", "regione": "emilia-romagna"}]